place_id,place_type,full_name,country_code,lon_min,lat_min,lon_max,lat_max
012c447f4ce72363,admin,Heredia  Costa Rica,CR,-84.202225,9.943537,-83.701706,10.789644
01e90aa86865637f,city,San Francisco de Macor+şs  Dominican Republic,DO,-70.363251,19.151717,-70.006187,19.516171
005d5532117f26e8,city,Santo Domingo Norte  Dominican Republic,DO,-70.032893,18.510493,-69.77299,18.716171
07d9c93311882002,poi,City of North Vancouver,CA,-123.094241,49.323349,-123.094241,49.323349
01d0ad55182d6404,city,Niskayuna  NY,US,-73.918305,42.764483,-73.809589,42.850298
06b9691f34c91d1c,city,Tottenham  London,GB,-0.170246,51.564585,-0.034078,51.611218
07d9c99b7c084000,poi,Terminal de Autobuses Nuevo Milenio de Zapopan,MX,-103.461392,20.70363,-103.461392,20.70363
0fb3c76f0e3df6d1,city,Hermosillo  Sonora,MX,-112.615459,28.228442,-110.380903,29.711283
07d9d21153085001,poi,Capitol Records,US,-118.326478,34.103193,-118.326478,34.103193
002fe3572a510aea,city,Georgetown  GA,US,-81.273589,31.960337,-81.183041,32.00743
07d9eb5971088000,poi,SoHo Taco HQ,US,-117.866751,33.707854,-117.866751,33.707854
011add077f4d2da3,city,Brooklyn  NY,US,-74.041878,40.570842,-73.855673,40.739434
01c86d355e71b956,city,Bucarest  Ruman+şa,RO,25.963699,44.34942,26.225914,44.541671
088bd1671a2e601a,city,Naucalpan de Ju+írez  M+ęxico,MX,-99.413769,19.412031,-99.207087,19.535557
1100db27cd9d364c,city,Florence-Graham  CA,US,-118.256783,33.943092,-118.227672,33.989716
07d9f6445e086000,poi,Centro Hist+-rico,MX,-99.13449,19.430583,-99.13449,19.430583
0a63c6d0b2161002,poi,Made in Pizza,MX,-103.421338,20.637196,-103.421338,20.637196
0a744d9486d61000,poi,Dugg Burger - Casa Linda Plaza,US,-96.701144,32.833892,-96.701144,32.833892
0e2242eb8691df96,city,Henderson  NV,US,-115.158143,35.917793,-114.918531,36.094719
0fc2a23962d4d000,poi,Drogheda Town Centre,IE,-6.35235,53.714502,-6.35235,53.714502
0fc2987bbd547000,poi,Mobil,US,-85.273104,35.104579,-85.273104,35.104579
20548cd375c9c081,city,Hereford  England,GB,-2.754906,52.032905,-2.671399,52.082833
11148050237800f2,city,Port St Lucie  FL,US,-80.457446,27.20569,-80.233079,27.39584
34ed2e67dd5a22bb,country,Slovensk+í republika,SK,16.833182,47.731389,22.566206,49.613824
22d928cbeab790ad,city,Allen  TX,US,-96.736596,33.066464,-96.608938,33.158169
135989ad972a5d9d,city,Bromley  London,GB,-0.080526,51.343417,0.133124,51.445223
3798b82d031ee49c,city,Merton  London,GB,-0.254269,51.379947,-0.124309,51.441804
00ab941b685334e3,city,Nashville  TN,US,-87.022482,35.994568,-86.560616,36.405448
009d3c3d41dbb00e,city,Enterprise  NV,US,-115.316075,35.960753,-115.152796,36.076856
00836cb90515ddd1,city,Asheville  NC,US,-82.681852,35.421216,-82.452163,35.656929
0112ed2538dfc334,city,Escazu  Costa Rica,CR,-84.146584,9.915214,-84.136032,9.925824
0093a5dd1242be45,city,Santiago  Dominican Republic,DO,-70.898907,19.272001,-70.60514,19.639734
00635f6765368ada,city,Paris  PA,US,-80.517996,40.397469,-80.495159,40.404298
0f6544604c94d002,poi,Veganteria,MX,-100.2698,25.745951,-100.2698,25.745951
008cf65153950e89,city,Cherry Grove  OH,US,-84.332209,39.068582,-84.290083,39.088522
002e24c6736f069d,city,Bronx  NY,US,-73.933612,40.785365,-73.765271,40.91533
00975c9578f9e109,city,Johns Creek  GA,US,-84.286258,33.985534,-84.097879,34.0905
006521fc1e50d338,city,East Bremerton  WA,US,-122.656562,47.567187,-122.602611,47.606916
07d9d51219080006,poi,La Llotja,ES,1.734451,41.216993,1.734451,41.216993
00deb766245f441c,city,San Jose  Costa Rica,CR,-84.100472,9.916954,-84.061234,9.943646
0121f9435fdae948,city,Bay City  MI,US,-83.97498,43.538242,-83.842876,43.696322
008fc9350a99febf,city,Batavia  OH,US,-84.238335,39.050967,-84.089236,39.113727
0001ed7e605ce519,city,Bonney Lake  WA,US,-122.214616,47.147327,-122.117391,47.214385
00082d21223f8397,city,Santa Marta  Colombia,CO,-74.242298,10.798249,-73.612345,11.348676
0003557c7b244fd3,admin,San Jos+ę  Costa Rica,CR,-84.59195,9.065554,-83.429459,10.199165
00e9226863a6e5a4,city,Savannah  GA,US,-81.188663,31.922596,-81.03057,32.111973
01a9a39529b27f36,city,Manhattan  NY,US,-74.026675,40.683935,-73.910408,40.877483
007b3322101aab55,city,Eastvale  CA,US,-117.611068,33.925197,-117.549003,34.03349
00d4c1491f272828,city,Upper Darby  PA,US,-75.303161,39.935578,-75.247408,39.974979
015d01f62d943406,city,Ciudad Arce  El Salvador,SV,-89.274826,13.629349,-89.215645,13.701438
00d25ede31d7a153,city,North Grosvenor Dale  CT,US,-71.920976,41.947451,-71.87016,42.024353
01fbe706f872cb32,city,Washington  DC,US,-77.119401,38.801826,-76.909396,38.99538
01f65a8664b58e6c,city,Otisville  NY,US,-74.553744,41.462208,-74.50122,41.503423
0114d4df45536881,city,Fontenay-sous-Bois  France,FR,2.447108,48.839108,2.499979,48.861575
00c3e46c3d0cac08,city,Frisco  TX,US,-96.937783,33.081206,-96.732715,33.219073
3972769ec1834def,city,Silver Lake  NC,US,-77.923643,34.123378,-77.891335,34.175326
38ce91044a32055f,city,Fort Wright  KY,US,-84.569766,39.004333,-84.511501,39.082109
00c39537733fa112,city,Queens  NY,US,-73.962582,40.541722,-73.699793,40.800037
00c44eeb126d2fcd,city,Round Rock  TX,US,-97.755394,30.468442,-97.59007,30.570239
0509a6acb3d27ec4,city,Thousand Oaks  CA,US,-119.061758,34.126875,-118.776015,34.250081
07d9c97007c87000,poi,RER Fontenay-sous-Bois [A],FR,2.464349,48.84348,2.464349,48.84348
232d6454d6094e9b,city,Preston  England,GB,-2.775262,53.74809,-2.628013,53.800092
012aac2b777e63fc,city,New Milford  CT,US,-73.474064,41.49231,-73.351881,41.643979
04291149b14feb9d,city,Lancaster  CA,US,-118.280798,34.630945,-118.045755,34.740709
0701e94ee168b555,city,Estrasburgo  Francia,FR,7.68816,48.492421,7.836256,48.646192
23f8a07383ac617e,city,Nice  France,FR,7.18209,43.645292,7.323955,43.76075
04cb31bae3b3af93,city,Miami  FL,US,-80.321683,25.70904,-80.144974,25.855667
01d06fb5242190dd,city,Cedarwood Park  NJ,US,-74.160521,40.018539,-74.104529,40.060658
0a0de7bd49ef942d,city,Scottsdale  AZ,US,-111.960775,33.435864,-111.756022,33.842816
0fbeaffce9d5e000,poi,Cervecer+şa Raimundo,ES,-5.979428,37.388988,-5.979428,37.388988
15cc31ea028d7048,city,Montigny-l+Ęs-Cormeilles  France,FR,2.174114,48.979215,2.213302,49.007664
07d9d23075888000,poi,Starbucks,US,-117.207294,32.747848,-117.207294,32.747848
3b74b6cbc9b980c2,city,Echirolles  France,FR,5.689022,45.127645,5.740883,45.160294
01c7de39d50eab15,city,Romford  London,GB,0.140821,51.500544,0.280358,51.62063
00fae4950337e465,city,Goodyear  AZ,US,-112.508916,33.317555,-112.341035,33.50819
0653bb913c88c1ea,city,Bruselas  B+ęlgica,BE,4.313989,50.796328,4.436947,50.913706
01c7ed8caf11e8b2,city,Kensington  London,GB,-0.228589,51.477225,-0.149791,51.530348
460c5314e8a33c64,city,Wandsworth  London,GB,-0.259465,51.417277,-0.127974,51.486036
17cc57fae415c45e,city,Milton Keynes  England,GB,-0.860472,51.973129,-0.667655,52.094005
28ace6b8d6dbc3af,city,Chula Vista  CA,US,-117.117116,32.582128,-116.92781,32.685406
01fcc4a23f17e1ed,city,anto Domingo de Guzm+ín  Dominican Republic,DO,-69.996319,18.424798,-69.860465,18.546752
053ab8e6678199ed,city,Doral  FL,US,-80.41729,25.780974,-80.321016,25.870313
09ba692cbddfc92c,city,Hammersmith  London,GB,-0.254563,51.463873,-0.177653,51.532901
00acdae83a559c60,city,Kingston  MA,US,-70.799736,41.964227,-70.692437,42.023216
0e278aedbe979000,poi,Mordis Sandwich Shop,  ,-74.061095,40.710412,-74.061095,40.710412
0fc26a5445d5e001,poi,McDonald's,MX,-103.367511,20.675076,-103.367511,20.675076
1795f2e3639cab31,city,London  Ontario,CA,-81.391247,42.824496,-81.106326,43.073185
4f060a213b552e5f,city,Harrow  London,GB,-0.403988,51.55309,-0.270137,51.638576
01c060cf466c6ce3,city,Long Beach  CA,US,-118.250227,33.732905,-118.063194,33.885438
00f8c733400e497a,city,Broomfield  CO,US,-105.147267,39.894185,-104.997195,40.000314
07d9d2fe9dc80000,poi,King of Donair,CA,-63.600813,44.644396,-63.600813,44.644396
09f6a7707f18e0b1,city,Paris  France,FR,2.224101,48.815521,2.469905,48.902146
0af0a491a5194920,city,Coconut Creek  FL,US,-80.203196,26.213436,-80.152557,26.327949
0822bc57d2966000,poi,Mojo Pub & Grill,US,-86.788503,33.511208,-86.788503,33.511208
609d1bbc180f1434,city,Coyoac+ín  Distrito Federal,MX,-99.205809,19.297011,-99.098871,19.359755
413337d3bda70024,city,Doxford Park  England,GB,-1.457159,54.858506,-1.390099,54.90471
4393349f368f67a1,city,Lambeth  London,GB,-0.15191,51.410792,-0.078902,51.509887
35b07b8fa46547c5,city,Le+-n  Guanajuato,MX,-101.833743,20.863352,-101.369059,21.332768
07d9db002f086000,poi,Daikokuya,US,-118.240095,34.049914,-118.240095,34.049914
084d0d0155787e9d,country,Ukraine,UA,22.13572,44.386383,40.227172,52.379475
107bf43ee3955005,poi,McDonald's,CA,-78.814292,43.906875,-78.814292,43.906875
0fc2909e6095b001,poi,Yin Ji Chang Fen ÚŐÇŔĘśŔůŞš-ëň¦Ś,CA,-79.325142,43.820277,-79.325142,43.820277
2615344c84ed87ee,city,Oshawa  Ontario,CA,-78.959206,43.614586,-78.68523,44.047385
3c9e627dd6b55d9e,city,Santa Cruz  CA,US,-122.076144,36.948098,-121.986229,37.010652
0562e9e53cddf6ec,city,Santa Ana  CA,US,-117.944051,33.691774,-117.830826,33.78821
01b2388c0a0d6dfe,city,Stanwood  WA,US,-122.383264,48.229499,-122.319204,48.268611
095534ad3107e0e6,city,Louisville  KY,US,-85.847503,38.108678,-85.597188,38.282432
013fbf673c82e5e4,city,Edinburg  TX,US,-98.225807,26.244127,-98.079031,26.450924
6264e4f8ac43f448,city,Rennes  Francia,FR,-1.752466,48.07661,-1.624197,48.154943
09dc2601794d8aa2,city,Hoylake  England,GB,-3.199903,53.351583,-3.141817,53.408688
3797791ff9c0e4c6,city,Toronto  Ontario,CA,-79.639319,43.403221,-78.90582,43.855401
10de09f288b1665c,city,Pasadena  CA,US,-118.198346,34.117025,-118.065582,34.237595
0fc2bc7b3f942001,poi,Applebee's Grill + Bar,US,-81.374962,28.511416,-81.374962,28.511416
300bcc6e23a88361,city,Seattle  WA,US,-122.436232,47.495315,-122.224973,47.734319
07d9db10b8486000,poi,El Fuego,US,-75.153623,39.948031,-75.153623,39.948031
146b4e4e831313bb,city,Whitby  Ontario,CA,-79.047315,43.589036,-78.737176,44.02872
07d9ca4bd6485003,poi,Barcelona,ES,2.177181,41.38341,2.177181,41.38341
058cf2935ef113b5,city,Rockwell  NC,US,-80.426025,35.533432,-80.374661,35.571117
07dccb89e8f25a8f,city,Downey  CA,US,-118.170429,33.90245,-118.090423,33.972897
0121b92345f0e2b4,city,Miami Beach  FL,US,-80.147162,25.761308,-80.118763,25.872623
09efd2065c8ce28e,city,Surrey  British Columbia,CA,-122.958937,49.001921,-122.678035,49.221117
3df4f427b5a60fea,city,San Antonio  TX,US,-98.778559,29.141956,-98.302744,29.693046
0f1871f4b554c000,poi,Street City Pub,US,-84.511214,39.102625,-84.511214,39.102625
107d325a6dd4d000,poi,McDonald's,CA,-78.878316,43.933425,-78.878316,43.933425
07d9dbf829082001,poi,Trackside Restaurant,US,-80.815469,35.581239,-80.815469,35.581239
38d0e797745f4c5d,city,Atascocita  TX,US,-95.249792,29.912242,-95.135568,30.033094
3b77caf94bfc81fe,city,Los Angeles  CA,US,-118.668404,33.704538,-118.155409,34.337041
08be9e4ebe3d037d,city,Poplar  London,GB,-0.080028,51.48432,0.009989,51.545341
011edd780200b886,city,Glens Falls  NY,US,-73.726867,43.287378,-73.594942,43.379646
4ec01c9dbc693497,admin,Florida  USA,US,-87.634643,24.396308,-79.974307,31.001056
161d2f18e3a0445a,city,Raleigh  NC,US,-78.818343,35.715805,-78.497331,35.972158
3f816f3fd3eff506,city,Saint-Maurice  France,FR,2.419627,48.812665,2.465616,48.824173
535f0c2de0121451,city,Warszawa  Polska,PL,20.852552,52.097709,21.271028,52.367962
0ac8a42f23e8f736,city,Puebla  M+ęxico,MX,-98.289206,18.83765,-98.019327,19.226809
44f6ab36310a38db,city,Sint-Gillis  Belgi+ź,BE,4.325636,50.820418,4.358688,50.839901
0ee1ef424615b000,poi,Some Good Food,US,-74.246292,40.768787,-74.246292,40.768787
01d6a42e6657caa4,city,Aguilares  El Salvador,SV,-89.269806,13.626244,-89.155121,13.736932
0fc3cf0fa694d000,poi,Starbucks,US,-81.759032,30.204649,-81.759032,30.204649
11cdb607ab2f17bb,city,New Rochelle  NY,US,-73.807197,40.881294,-73.755414,40.988329
0f74b7fea897b000,poi,PeteÔÇÖs Tako House,US,-98.484417,29.432985,-98.484417,29.432985
67d92742f1ebf307,admin,Michigan  USA,US,-90.418108,41.696088,-82.122971,48.306272
309e17b76de8b69d,city,Friendly  MD,US,-76.993801,38.71813,-76.919094,38.781239
0185fd6875f1815c,city,Fountainebleau  FL,US,-80.386249,25.761172,-80.320416,25.783404
1d7f843d5cb6fb76,city,Stevenage  East,GB,-0.227432,51.872235,-0.154471,51.932368
0fc31c0c04542006,poi,SOS Art Gallery at BizOrlando.com - Studio Orlando Services,US,-81.355703,28.544535,-81.355703,28.544535
54bef12d29747c5d,city,Brest  France,FR,-4.568905,48.357202,-4.430198,48.459044
0570f015c264cbd9,city,St Louis  MO,US,-90.320516,38.533193,-90.175132,38.774349
5635c19c2b5078d1,admin,Virginia  USA,US,-83.67529,36.540739,-75.16644,39.466012
012dc7c37597fabe,city,Corozal  USA,US,-66.376219,18.238725,-66.277811,18.370399
0758e784387570d6,city,Sel+žuklu  T+-rkiye,TR,32.411426,37.870289,32.588732,38.040321
07d9f334f3481001,poi,Palacio de Bellas Artes,MX,-99.141959,19.434953,-99.141959,19.434953
6d716125b43cb735,city,Algonquin  IL,US,-88.383751,42.124838,-88.198981,42.241892
4d12c6b114439dc2,city,Ch+óteau-d'Olonne  France,FR,-1.772668,46.456657,-1.674954,46.522194
366a7dff327a7d52,city,Strensall  England,GB,-1.047644,54.0202,-1.02025,54.045937
3e82edc94d5c5ce1,city,Pasadena  TX,US,-95.234584,29.59057,-95.083288,29.746032
0df6ac4d361d4e0e,city,Vigo  Espa+-a,ES,-8.916355,42.12938,-8.626759,42.264735
018929347840059e,city,Indianapolis  IN,US,-86.348441,39.631677,-85.937404,39.927448
206c436ce43a43a3,city,Madrid  Spain,ES,-3.889005,40.312071,-3.51801,40.643518
0fc32ec69cd41000,poi,Mr. Sushi,MX,-98.225442,19.070819,-98.225442,19.070819
0cdf9a17ded50000,poi,Park's Edge,GB,-0.100743,51.451374,-0.100743,51.451374
5de8cffc145c486b,city,Camden Town  London,GB,-0.213503,51.512805,-0.105303,51.572068
72ac303c0e608f71,city,St George  UT,US,-113.641805,37.021646,-113.513726,37.149517
1a27537478dd8e38,city,Barcelona  Espa+-a,ES,2.052477,41.317048,2.229978,41.468266
0811cf61cd9ea52f,city,Winnipeg  Manitoba,CA,-97.350366,49.713679,-96.954987,49.993932
1010ecfa7d3a40f8,admin,Indiana  USA,US,-88.097892,37.771743,-84.78458,41.761368
08f52254f6c1587b,neighborhood,Providencia Cuarta Secci+-n  Guadalajara,MX,-103.389761,20.695845,-103.382705,20.702311
2409d5aabed47f79,city,Rochester Hills  MI,US,-83.214001,42.620953,-83.091535,42.712333
56c45474148ca4da,city,Paddington  London,GB,-0.21607,51.509879,-0.13016,51.539792
5d441fd5487fc133,city,Eagan  MN,US,-93.228436,44.774013,-93.104796,44.862942
7807880b17af73d8,city,Guadalajara  Jalisco,MX,-103.408633,20.600585,-103.263131,20.752719
151b9e91272233d1,city,Liverpool  England,GB,-3.008791,53.36489,-2.822063,53.474867
44453d2ae8e47fd5,city,Mount Vernon  NY,US,-73.853645,40.889695,-73.805123,40.935303
107fda020654f000,poi,Stella's Empanadas & Argentina Grill,US,-74.136708,40.773936,-74.136708,40.773936
55b2935da16ddb91,city,Port Moody  British Columbia,CA,-122.94579,49.270394,-122.821058,49.330216
575c6d4e1b73546d,city,Calabasas  CA,US,-118.719985,34.105958,-118.605227,34.168562
25a2096c466b79bf,city,Farragut  TN,US,-84.241116,35.806025,-84.119998,35.917782
1aca5ffbc553e95b,city,L'Hospitalet de Llobregat  Espa+-a,ES,2.086323,41.336062,2.137433,41.380548
30f7f566cd810031,city,Greenbelt  MD,US,-76.915629,38.971715,-76.858787,39.015363
06168d1feda43857,admin,South East  England,GB,-1.957296,50.574606,1.451788,52.196285
0fc32ee50e146001,poi,Cullum's Attagirl,US,-98.485069,29.453266,-98.485069,29.453266
462b253f0ed910d2,city,Cape Carteret  NC,US,-77.070902,34.679497,-77.036358,34.717544
778af41ffb719450,city,Coral Gables  FL,US,-80.297165,25.627038,-80.245009,25.771859
10c1a605d957b003,poi,Caribou Coffee,US,-93.245405,44.789657,-93.245405,44.789657
1d11717aae7dc8c7,city,Caluire-et-Cuire  France,FR,4.818992,45.778901,4.880621,45.818321
0fc6568d145d84ac,city,Lakewood  CA,US,-118.167821,33.820057,-118.05833,33.869242
111006800e54c000,poi,Long Island,US,-73.125923,40.824259,-73.125923,40.824259
12f69ad404352073,city,Garston  England,GB,-2.940659,53.331287,-2.818002,53.38523
24a53a1880093fa9,city,Winston-Salem  NC,US,-80.389019,35.934126,-80.100949,36.240211
28db2dbc4240f0b2,city,Worcester  MA,US,-71.893265,42.210065,-71.731611,42.341455
66c992a992d4a17a,city,Owensboro  KY,US,-87.211826,37.714739,-86.992973,37.815531
1577f4760b8bb0b3,city,Borehamwood  East,GB,-0.297848,51.640831,-0.249317,51.682412
5890626f643ab65b,city,Bergamo  Lombardia,IT,9.618752,45.65529,9.713634,45.731373
6258b3795e2efc9e,city,Atlatlahucan  Morelos,MX,-98.961147,18.888752,-98.836034,18.999934
2a93711775303f90,city,Milwaukee  WI,US,-88.070827,42.920822,-87.863758,43.192623
13d479b108707983,country,Guatemala,GT,-92.227387,13.72873,-88.221055,17.816205
25530ba03b7d90c6,country,M+ęxico,MX,-118.403857,14.531918,-86.712218,32.718919
4249bb41acf40cfb,city,Byker  England,GB,-1.611559,54.959766,-1.530588,55.009984
1153d1a598a817b1,city,Belmont  NC,US,-81.066211,35.167439,-81.009442,35.285384
4c1d025d0ebaa911,city,Haines City  FL,US,-81.666836,28.072873,-81.584261,28.143168
5b8df26e6d0be60b,city,Smyrna  GA,US,-84.561205,33.788139,-84.470367,33.905391
791cba0d58792148,city,Fraser  MI,US,-82.970199,42.523595,-82.929046,42.554008
0eb9676d24b211f1,city,Cleveland  OH,US,-81.877771,41.392684,-81.533163,41.599195
0ce4c27ce26030aa,city,Newport Beach  CA,US,-117.958219,33.563618,-117.789845,33.671658
1e7ee7374f6c2e25,city,Les Sables-d'Olonne  France,FR,-1.822041,46.479901,-1.754194,46.520266
6ecc574459e0501b,city,Issy-les-Moulineaux  France,FR,2.235965,48.813271,2.289398,48.834574
33de55bc584a42ec,city,New Westminster  British Columbia,CA,-122.959983,49.175445,-122.875033,49.238058
824a305dcc9ef250,city,Salamanca  Guanajuato,MX,-101.312366,20.436708,-101.027978,20.866516
457b4814b4240d87,city,London  England,GB,-0.187894,51.483718,-0.109978,51.516466
4e9baf84e2232342,country,Guadeloupe,GP,-61.809833,15.832017,-61.001953,16.514491
56909099a1d44057,city,Carson  CA,US,-118.290541,33.792887,-118.205584,33.886336
1927193c57f35d51,city,West Hollywood  CA,US,-118.395904,34.075963,-118.343386,34.098056
2bc7c264a080898b,city,Hollywood  FL,US,-80.248975,25.986228,-80.107808,26.093132
1e5cb4d0509db554,city,Vancouver  British Columbia,CA,-123.224215,49.19854,-123.022947,49.316738
73d1c1c11b675932,city,Chesapeake  VA,US,-76.448383,36.66,-76.143408,36.866431
27485069891a7938,admin,New York  NY,US,-74.255641,40.495865,-73.699793,40.91533
67b98f17fdcf20be,city,Boston  MA,US,-71.191421,42.227797,-70.986004,42.399542
5c2b5e46ab891f07,city,Las Vegas  NV,US,-115.384091,36.129459,-115.062159,36.336371
122aef8d6840943b,city,South El Monte  CA,US,-118.075186,34.028137,-118.021298,34.064367
64111eacec1c3379,city,Catarroja  Espa+-a,ES,-0.450599,39.364717,-0.347821,39.419375
9519f2018bb6585b,city,Homestead  FL,US,-80.526237,25.440567,-80.377996,25.518331
0fc2a7144a946000,poi,La Bodega,NL,6.094181,52.510967,6.094181,52.510967
3a8a2c667faaf9ba,city,Exeter  England,GB,-3.568747,50.693458,-3.461006,50.748422
0fc3bcbe8394c000,poi,Hi Tech Detail,US,-73.933718,41.093675,-73.933718,41.093675
59612bd882018c51,city,Santa Monica  CA,US,-118.517358,33.995177,-118.443482,34.050199
315b740b108481f6,city,Manchester  England,GB,-2.319934,53.343623,-2.147026,53.570282
507a015cba6ef518,city,M+ílaga  Espa+-a,ES,-4.587928,36.635585,-4.260134,36.894171
791e00bcadc4615f,city,Glasgow  Scotland,GB,-4.393285,55.796184,-4.090218,55.920421
137fd4a4fbf74e6f,city,Hopewell  VA,US,-77.337993,37.257957,-77.269756,37.317666
7142eb97ae21e839,admin,Georgia  USA,US,-85.605166,30.355644,-80.742567,35.000771
1c4cd8e4ae3a1959,city,Poole  England,GB,-2.013326,50.682612,-1.891233,50.774097
4c9617680dec8914,city,Newburn  England,GB,-1.780739,54.96944,-1.668453,55.008114
60e2c37980197297,city,St Paul  MN,US,-93.207783,44.890752,-93.003514,44.992279
2c7d183308d00a7e,city,Latour-de-France  France,FR,2.621742,42.747451,2.677704,42.793015
34e47ddf52a690bc,city,Richmond Hill  Ontario,CA,-79.485633,43.829311,-79.371118,43.977707
b0b79caecef59fb5,city,Burbank  CA,US,-118.37032,34.14263,-118.27997,34.22169
22886de3634e157a,city,Culiac+ín  Sinaloa,MX,-107.806281,24.028162,-106.877832,25.296815
120248073af6ca31,city,Almada  Portugal,PT,-9.263262,38.550299,-8.95143,38.782211
5ef832bb704339b0,city,Helsinki  Suomi,FI,24.78281,60.021032,25.254436,60.29791
1e735f8fb045152d,city,Wyomissing  PA,US,-75.988788,40.30576,-75.947615,40.35633
24aa79dc9093f841,city,Saginaw Township North  MI,US,-84.061931,43.436617,-83.949565,43.48891
95b8c1610ebc0395,city,Mexicali  Baja California,MX,-115.818421,30.86042,-114.639939,32.718919
20c4c5a3ce69f1a0,city,Antibes  France,FR,7.064466,43.541878,7.145077,43.62279
370e82cb8dff6189,city,Mascouche  Qu+ębec,CA,-73.700164,45.716103,-73.526116,45.821364
0fc33e7366947000,poi,Popeyes Louisiana Kitchen,US,-97.168205,31.527859,-97.168205,31.527859
781fc267d9c4a391,city,Cabri+Ęs  France,FR,5.301158,43.416943,5.392518,43.488964
38d5974e82ed1a6c,city,Ottawa  Ontario,CA,-76.353876,44.961937,-75.246407,45.535645
c47c0bc571bf5427,city,Honolulu  HI,US,-157.950476,21.254837,-157.648702,21.38505
6a6d896ba1cb5dc4,city,Edmonton  Alberta,CA,-113.71368,53.395531,-113.271555,53.716108
25d3e991f5637f5a,admin,South West  England,GB,-6.368504,49.882472,-1.485734,52.112542
6c686af766d8429c,city,Fort Lauderdale  FL,US,-80.20811,26.080935,-80.090235,26.219801
2373a8c48674ebc5,neighborhood,Real Vallarta  Zapopan,MX,-103.426864,20.672377,-103.421393,20.679671
8a8002ffef902f59,city,Essex  MD,US,-76.489916,39.270065,-76.381559,39.330308
121c60911ec2f3d9,city,Equeurdreville-Hainneville  France,FR,-1.724495,49.625926,-1.64243,49.66562
5970723cbb8cc66e,city,Aguascalientes  M+ęxico,MX,-102.588385,21.622938,-102.066029,22.07598
4fdbcad8c3ed7790,city,Victoria  British Columbia,CA,-123.394397,48.403014,-123.322362,48.450447
3fc1a1035cdd94c8,city,Redmond  OR,US,-121.229416,44.235383,-121.133527,44.306043
63b42cf9e0b05dad,city,Boca del R+şo  Veracruz de Ignacio de la Llave,MX,-96.150405,19.054575,-96.047576,19.231626
464221381fb3f7c1,city,St Louis Park  MN,US,-93.410573,44.919577,-93.328414,44.978557
7d62cffe6f98f349,city,San Jose  CA,US,-122.035311,37.193164,-121.71215,37.469154
26b0db32cfda0432,city,Walthamstow  London,GB,-0.06111,51.549969,0.023642,51.648542
90a5d505052f7bae,city,+ülvaro Obreg+-n  Distrito Federal,MX,-99.324375,19.232228,-99.171644,19.403856
3ec3ae6527ff6b28,city,Whitchurch-Stouffville  Ontario,CA,-79.420679,43.923434,-79.217705,44.101263
2c44e3f2181987ec,city,Dartford  South East,GB,0.150383,51.414106,0.262875,51.466343
18810aa5b43e76c7,city,Dallas  TX,US,-96.977527,32.620678,-96.54598,33.019039
53b67b1d1cc81a51,city,Birmingham  England,GB,-2.033651,52.381063,-1.74763,52.60687
5e02a0f0d91c76d2,city,¦-stanbul  T+-rkiye,TR,28.632104,40.802734,29.378341,41.239907
67040de6ff7e656d,city,Vauxrenard  France,FR,4.608097,46.192945,4.674892,46.248648
676d5bedd73ca2ec,city,Summerville  SC,US,-80.235287,32.944965,-80.109533,33.054993
7ef79c5ab17d518c,city,Barnet  London,GB,-0.292579,51.555179,-0.12921,51.66859
c62f6bb85a768d28,city,Kiiminki  Suomi,FI,25.557009,65.02139,26.081596,65.22491
7dde0febc9ef245b,city,Dublin City  Ireland,IE,-6.387438,53.298745,-6.107805,53.41106
30344aecffe6a491,city,Fremont  CA,US,-122.069956,37.454962,-121.889098,37.592327
6adfad7bd6c1e881,city,Dentsville  SC,US,-80.995487,34.051162,-80.912497,34.11936
5c43cbdfce4d3247,city,Mississauga  Ontario,CA,-79.810142,43.373074,-79.422004,43.737414
544762ebf7fda780,city,Islington  London,GB,-0.142058,51.518552,-0.076305,51.575301
553011a282a18fb5,city,University  FL,US,-82.45491,28.054805,-82.409812,28.098918
2d80329dea8e5c9e,city,Pforzheim  Deutschland,DE,8.624721,48.819034,8.808588,48.929609
8b16d56e258b0278,city,Xalapa  Veracruz de Ignacio de la Llave,MX,-96.971524,19.48425,-96.800642,19.599858
1c69a67ad480e1b1,city,Houston  TX,US,-95.823268,29.522325,-95.069705,30.154665
af57c8053272899f,city,El Sobrante  CA,US,-122.318538,37.938766,-122.244018,37.991108
b49b3053b5c25bf5,city,Denver  CO,US,-105.109815,39.614151,-104.734372,39.812975
63d0671506628c8d,city,Kennewick  WA,US,-119.264818,46.162262,-119.087063,46.236321
6dd4aeb802da9f28,city,Newcastle Upon Tyne  England,GB,-1.693792,54.960055,-1.596931,55.024056
76e0fd2d1efd1f7e,city,Maple Heights  OH,US,-81.585463,41.372318,-81.527204,41.425052
c5c72776b9f0cc0b,city,San Nicol+ís de los Garza  Nuevo Le+-n,MX,-100.337498,25.702823,-100.20345,25.770607
5727d936119423c0,city,Pembroke Pines  FL,US,-80.442683,25.992486,-80.213314,26.063293
7ff122e08c254107,city,Naters  Schweiz,CH,7.884229,46.302822,8.068325,46.469079
495a55057ac886b9,city,Montpelier  VT,US,-72.625573,44.234872,-72.544556,44.312702
36775d842cbec509,city,Montr+ęal  Qu+ębec,CA,-73.972965,45.410095,-73.473085,45.705566
305867481351611b,city,San Pedro Garza Garc+şa  Nuevo Le+-n,MX,-100.425188,25.583557,-100.306878,25.717018
1c4923a87ae4f277,city,Clarington  Ontario,CA,-78.872015,43.633252,-78.400923,44.098771
d1cd39353c51904d,city,Boca Raton  FL,US,-80.203991,26.320692,-80.065981,26.427259
3078869807f9dd36,city,Berlin  Deutschland,DE,13.088304,52.338079,13.760909,52.675323
5c9d123437711a9d,city,Jackson  MS,US,-90.331039,32.049347,-89.984994,32.412627
23a06e5cc6d83009,city,Paterson  NJ,US,-74.205822,40.888642,-74.129793,40.941452
607358f5dbace76a,city,Yuma  AZ,US,-114.710936,32.601699,-114.458569,32.734737
910868722e1e4825,city,Littleton  CO,US,-105.062023,39.563868,-104.973551,39.62983
b71fac2ee9792cbe,city,Sacramento  CA,US,-121.576613,38.43792,-121.362715,38.685524
68af9cde77fb61dd,city,St Simons  GA,US,-81.411993,31.133458,-81.350905,31.22196
7027ba8eb532eb33,city,Toluca  M+ęxico,MX,-99.782579,19.076393,-99.528773,19.49225
55b4f9e5c516e0b6,city,Orlando  FL,US,-81.507905,28.388218,-81.22764,28.615139
6681d5e2139a448e,city,North Grenville  Ontario,CA,-75.817985,44.845633,-75.485733,45.125543
dd3b100831dd1763,city,New Orleans  LA,US,-90.137908,29.889574,-89.884108,30.075628
adc95f2911133646,city,Colorado Springs  CO,US,-104.910562,38.741142,-104.668092,39.035895
7ae9e2f2ff7a87cd,city,Edinburgh  Scotland,GB,-3.328512,55.894729,-3.077505,55.991662
7d51c8dfbb08a9de,city,Redding  CA,US,-122.452708,40.456935,-122.267398,40.651054
e4a0d228eb6be76b,city,Philadelphia  PA,US,-75.280284,39.871811,-74.955712,40.13792
373c6c575cd2601b,city,Torre+-n  Coahuila de Zaragoza,MX,-103.511379,24.793821,-102.954881,25.694625
7b807e72008cf777,city,Tower Hill  England,GB,-2.898344,53.490082,-2.872201,53.503921
9e65217a3af1879e,city,East Peoria  IL,US,-89.610303,40.6193,-89.474148,40.752945
bcee01c035f8e0c4,city,Hiller+Şd  Danmark,DK,12.079464,55.845209,12.39459,56.00319
6f1840cee437e17a,city,Gustavo A. Madero  Distrito Federal,MX,-99.180678,19.444937,-99.051103,19.592375
7c97cbaddc57fcf4,city,Tlaquepaque  Jalisco,MX,-103.453231,20.539641,-103.243417,20.644625
7af0fb6f137530df,city,North Decatur  GA,US,-84.310051,33.776522,-84.262886,33.829099
7f55e839e1715da2,city,Camberwell  London,GB,-0.111476,51.419425,-0.029731,51.509947
df4875cc2df893ed,city,Bellevue  WA,US,-122.223209,47.534965,-122.076327,47.660748
b8923fc5a1c5e39b,city,Cuautitl+ín Izcalli  M+ęxico,MX,-99.294897,19.580497,-99.172417,19.732082
1d9a5370a355ab0c,city,Chicago  IL,US,-87.940033,41.644102,-87.523993,42.023067
3ddb10d62383799a,city,Bedford  England,GB,-0.51552,52.104873,-0.403213,52.170074
c3f37afa9efcf94b,city,Austin  TX,US,-97.928935,30.127892,-97.580513,30.518799
4da74513442e5fc5,city,Corvallis  OR,US,-123.343425,44.527244,-123.215262,44.611247
c7c2233ad8246f5d,city,Venustiano Carranza  Distrito Federal,MX,-99.128294,19.404352,-99.04734,19.459799
c1430b24da8e9229,city,Lisboa  Portugal,PT,-9.229826,38.691375,-9.090164,38.795853
659395aaea6aa724,city,Potsdam  Deutschland,DE,12.887323,52.34195,13.168072,52.514508
e86b380cfefcced5,admin,Connecticut  USA,US,-73.727776,40.950918,-71.786994,42.050588
f6b87aec17cb031d,city,Morelia  Michoac+ín de Ocampo,MX,-101.508271,19.442976,-101.043269,19.862472
7bc29846eabda1f2,city,Metepec  M+ęxico,MX,-99.647028,19.215624,-99.512801,19.287437
8fe2e9b7b1ed6389,city,Espoo  Suomi,FI,24.499764,60.00307,24.850506,60.363616
e825dd87e48f45ed,city,San Luis Potos+ş  M+ęxico,MX,-101.169792,21.959357,-100.74123,22.662882
1eccff5b77dbb122,city,Eltham  London,GB,0.045148,51.423888,0.133501,51.512916
68f3012fe4848e35,city,Cardiff  Wales,GB,-3.278624,51.447362,-3.080976,51.546641
f04813ea26f51186,city,Des Plaines  IL,US,-87.950838,41.991443,-87.83701,42.080839
1ea588c12abd39d7,city,Milan  Lombardy,IT,9.040628,45.386726,9.278045,45.535964
3df0e3eb1e91170b,city,Columbus  OH,US,-83.200169,39.832013,-82.771375,40.157354
c87bc3adb59d807f,city,Winter Park  FL,US,-81.375805,28.567893,-81.307654,28.632478
3eb2c704fe8a50cb,city,City of London  London,GB,-0.112442,51.5068,-0.073379,51.522161
253497d02bb72629,city,Vantaa  Suomi,FI,24.746446,60.237181,25.192803,60.401142
d16c1b8ae1635978,city,A Coru+-a  Espa+-a,ES,-8.471284,43.301377,-8.374342,43.389945
6bb01c5f4cf295dc,city,Azcapotzalco  Distrito Federal,MX,-99.221136,19.456367,-99.143116,19.5152
b0e7385b9c530ddc,city,Poway  CA,US,-117.084304,32.927402,-116.985751,33.043179
99cdab25eddd6bce,city,Amsterdam  Nederland,NL,4.7289,52.278227,5.079207,52.431229
b463d3bd6064861b,city,Detroit  MI,US,-83.288056,42.255085,-82.91052,42.450488
b19e24ce42ccd6aa,city,Monterrey  Nuevo Le+-n,MX,-100.421037,25.480538,-100.166146,25.802899
d52c2a8e878b7cf7,city,Hesperia  CA,US,-117.400338,34.366195,-117.23785,34.471356
c8b06a459cc8f78a,city,SeaTac  WA,US,-122.326102,47.396426,-122.266875,47.48874
6e39810d49945420,city,Talence  France,FR,-0.611176,44.786855,-0.572695,44.825347
7f0e166849448f1d,city,Kailua  HI,US,-157.765901,21.352946,-157.705775,21.428447
b87b05856ab8dbd8,city,Yonkers  NY,US,-73.911271,40.900789,-73.810443,40.988346
d3492c68c5661201,city,Quer+ętaro  Quer+ętaro Arteaga,MX,-100.596343,20.50317,-100.284846,20.927379
e86e154b91acd5a3,city,Cuajimalpa de Morelos  Distrito Federal,MX,-99.364536,19.232313,-99.246625,19.405081
4b656a23df9bee4a,city,Camp Springs  MD,US,-76.945495,38.768037,-76.890929,38.835708
f3bfc7dcc928977f,country,France,FR,-5.141593,41.364659,9.559831,51.088771
cd450c94084cbf9b,admin,Massachusetts  USA,US,-73.508143,41.187054,-69.858861,42.886824
222efb7ee8b98c58,city,Elmhurst  IL,US,-87.969193,41.847769,-87.915373,41.93168
758461cd66db17e0,city,Sutton  London,GB,-0.245869,51.330352,-0.117306,51.393443
d9a5fcc064738890,admin,Sevilla  Andaluc+şa,ES,-6.53856,36.842142,-4.651075,38.196832
d95b50d40bcc459b,city,+ü+-d+¦  Polska,PL,19.320808,51.686377,19.640373,51.860354
ecdce75d48b13b64,country,Espa+-a,ES,-18.160695,27.63775,4.327985,43.790388
bfc35dcc7e63252a,city,Cuauht+ęmoc  Distrito Federal,MX,-99.18435,19.399835,-99.122382,19.465837
58f909abfd95e133,city,Lewisham  London,GB,-0.074547,51.414087,0.038567,51.494127
7d93122509633720,city,Benito Ju+írez  Distrito Federal,MX,-99.191996,19.357102,-99.130965,19.404124
5a110d312052166f,city,San Francisco  CA,US,-122.514926,37.708075,-122.357031,37.833238
4569cb6dc10540ba,city,Folkestone  England,GB,1.042592,51.058596,1.199004,51.100145
80f128c34d2549c6,country,Barbados,BB,-59.650608,13.044133,-59.420381,13.334466
fee8b88f74a9763d,city,Nogales  Sonora,MX,-111.353471,31.007209,-110.649331,31.377975
d970e7fd69eaf4ec,city,Melbourne  FL,US,-80.706074,28.03509,-80.593324,28.200658
fb4e19c906cdaa73,city,Hagerstown  MD,US,-77.786448,39.592419,-77.671529,39.676503
dc96a032c98a1ea9,city,Winter Garden  FL,US,-81.625844,28.49675,-81.554843,28.595488
7eeed20da9c42064,city,McKinney  TX,US,-96.803319,33.137357,-96.595889,33.251946
c8e7273a81fab7c0,city,Medford  MA,US,-71.149807,42.396145,-71.071833,42.453759
f995a9bd45d4a867,city,Memphis  TN,US,-90.135782,34.994192,-89.708276,35.272849
cf4c3ec0111a59b2,city,Huntington Woods  MI,US,-83.183354,42.474052,-83.153051,42.489443
a612c69b44b2e5da,admin,Arizona  USA,US,-114.818269,31.332246,-109.045153,37.004261
57b8055fd5cc511c,city,Asni+Ęres-sur-Seine  France,FR,2.26496,48.902351,2.322018,48.933671
d3f378f122d4f4a7,city,Cheektowaga  NY,US,-78.799913,42.863516,-78.696885,42.950897
7a7a99d327d09b5c,city,Fourques-sur-Garonne  France,FR,0.12368,44.432755,0.184355,44.479416
ac6fea0297ea027f,city,Bayam+-n  USA,US,-66.200774,18.328316,-66.11836,18.430998
771f8196d3598fe8,city,Diamond Bar  CA,US,-117.86323,33.959529,-117.767626,34.042345
7b93be1d864cedbb,city,Providence  RI,US,-71.474186,41.772455,-71.369479,41.861713
fed41885bbf30f6a,city,Sant Antoni de Portmany  Espa+-a,ES,1.283573,38.926375,1.429574,39.079344
f879e41db043d14c,city,Ecatepec de Morelos  M+ęxico,MX,-99.118665,19.484399,-98.970224,19.652161
5faafada28b440c3,city,Fountain Hills  AZ,US,-111.7834,33.567198,-111.698379,33.640623
893163e131e6e67c,city,Glencoe  IL,US,-87.798116,42.116038,-87.741214,42.152501
5a16f6443a850916,city,Vancouver  WA,US,-122.713442,45.582501,-122.464507,45.678677
dc62519fda13b4ec,city,Tampa  FL,US,-82.620093,27.821353,-82.265295,28.171836
2a3f152d1ac5044a,city,Hackney  London,GB,-0.104501,51.518605,-0.015834,51.576684
fe52af1ec31cb540,city,Haverhill  MA,US,-71.182362,42.734289,-71.000439,42.827267
2400156d6de057e3,city,Tijuana  Baja California,MX,-117.298421,32.098292,-116.559783,32.567461
d66ca907ceb62690,country,Jamaica,JM,-78.368878,17.705786,-76.183028,18.525029
70707114a9202b98,city,Garden Grove  CA,US,-118.042964,33.732214,-117.894116,33.805876
dea1eac2d7ef8878,admin,Maryland  USA,US,-79.487651,37.886607,-74.986286,39.723622
92220986b9dfd67d,city,Birmingham  AL,US,-86.967333,33.405025,-86.620501,33.67945
5ca2cc5afa0894df,city,Miramar  FL,US,-80.40816,25.956799,-80.205968,25.995449
8ef32ff56ef11c22,admin,England  United Kingdom,GB,-6.365194,49.882531,1.768926,55.811649
fe53064752fa8c44,city,Cotati  CA,US,-122.729649,38.315067,-122.687679,38.343641
2a376531dff3d76a,city,Tlalpan  Distrito Federal,MX,-99.315748,19.087511,-99.10098,19.311459
e0060cda70f5f341,admin,Texas  USA,US,-106.645646,25.837092,-93.508131,36.500695
94542c3c348faf28,city,Edison  NJ,US,-74.439943,40.47205,-74.316053,40.605523
7095fcbd8ae7b9f8,city,Byron  MN,US,-92.678116,44.021796,-92.620854,44.054297
407b2c699286aab5,city,Revere  MA,US,-71.033007,42.388503,-70.959648,42.4499
d04a4edf39a6d028,admin,Seine-et-Marne  Ile-de-France,FR,2.392476,48.120449,3.558805,49.117369
2da0d7448e905768,city,Moita  Portugal,PT,-9.0506,38.601232,-8.944905,38.689674
a227c629b631eea2,city,Belleville  NJ,US,-74.186781,40.774445,-74.138536,40.809762
7a41192a2879ee24,city,Sugar Land  TX,US,-95.686106,29.543372,-95.577273,29.663556
bc0e457d930c93b7,city,Longview  WA,US,-123.030968,46.098034,-122.892858,46.183578
40ce1cd0eac02958,city,Bordeaux  France,FR,-0.638964,44.811122,-0.533496,44.916354
315906f3f5b4dffe,city,Ipswich  England,GB,1.106876,52.023536,1.21645,52.090691
8173485c72e78ca5,city,Atlanta  GA,US,-84.576827,33.647503,-84.289385,33.886886
c2809aa3b2c93fb2,city,Kissimmee  FL,US,-81.47749,28.250764,-81.327204,28.347977
c7ef5f3368b68777,city,Baton Rouge  LA,US,-91.218994,30.354161,-90.962605,30.564039
5f73d127c7ccf9d9,city,Croydon  London,GB,-0.161749,51.294332,-0.023517,51.42353
353c22ab906632de,city,Cambridge  Ontario,CA,-80.413946,43.332161,-80.251265,43.472057
78d9392bd6093265,city,Vaughan  Ontario,CA,-79.711527,43.749761,-79.420056,43.924448
eaf73267148942d2,city,Ahome  Sinaloa,MX,-109.44826,25.440593,-108.759193,26.4033
dee4ad8775ff8102,city,Santa Maria  CA,US,-120.482386,34.875868,-120.356782,34.988866
c0b8e8dc81930292,city,Baltimore  MD,US,-76.711521,39.197211,-76.529443,39.372215
3593b759ad828467,city,Valfurva  Lombardia,IT,10.391065,46.334761,10.633008,46.498286
47be6341b02ac59f,city,Kitchener  Ontario,CA,-80.574116,43.353845,-80.378691,43.506635
9d8ae4b0fac2036a,country,Panam+í,PA,-83.051445,7.20386,-77.13939,9.639486
e42ed02b50d62e29,city,Oslo  Norway,NO,10.491468,59.809779,10.951584,60.135032
8a8b2699803bff27,city,Maywood  CA,US,-118.204687,33.979979,-118.169985,33.996711
ccca926f0e57c2b0,city,Playas de Rosarito  Baja California,MX,-117.094903,32.092917,-116.682784,32.412044
36f5c7c7ac78dcb4,city,Bagnolet  France,FR,2.41346,48.8552,2.437093,48.878981
51eb6ab5833691a5,city,Chartres  France,FR,1.460083,48.42681,1.549412,48.469044
480d6a1669a2f246,city,Cutler Bay  FL,US,-80.377924,25.53703,-80.316154,25.599605
a227cb4ffca3acf7,city,Puerto Vallarta  Jalisco,MX,-105.324392,20.471599,-104.972769,20.922506
eb5c40f3d165a855,city,Mooresville  NC,US,-80.961004,35.495207,-80.768109,35.641662
74704aa81e197418,city,Tlalnepantla de Baz  M+ęxico,MX,-99.248181,19.498594,-99.080384,19.589272
5ae737e5cd3e5986,city,Ch+ótenay-en-France  France,FR,2.441308,49.055191,2.482822,49.07504
9de57b9239869b74,city,San Andr+ęs Cholula  Puebla,MX,-98.363779,18.980181,-98.253419,19.065807
a592bd6ceb1319f7,city,San Diego  CA,US,-117.282538,32.53962,-116.92744,33.080404
9883a4be0cbd497c,city,Tukwila  WA,US,-122.318673,47.407147,-122.241356,47.531957
65e3a577f1940550,city,Englewood  NJ,US,-73.994557,40.865695,-73.949202,40.913406
3ad512d283f67a11,city,Miguel Hidalgo  Distrito Federal,MX,-99.259495,19.386371,-99.163526,19.473498
cd1ef3f65a272c6b,city,P+ínuco  Veracruz de Ignacio de la Llave,MX,-98.680384,21.688226,-97.897766,22.472034
d070f45b4dfc00b8,city,Botkyrka  Sverige,SE,17.662969,59.044427,17.984828,59.268559
ac88a4f17a51c7fc,city,Portland  OR,US,-122.790065,45.421863,-122.471751,45.650941
6a0a3474d8c5113c,city,El Paso  TX,US,-106.634874,31.620668,-106.199987,31.966068
db6cee8d55fe4a29,city,Nashua  NH,US,-71.5749,42.700087,-71.433334,42.805852
df4f3fa83ca683de,city,Willowick  OH,US,-81.488902,41.618052,-81.451305,41.652659
7efb0e99097064ea,city,Chihuahua  M+ęxico,MX,-106.619964,28.096608,-105.705833,29.787124
434aa97c84957b5b,city,Vesoul  France,FR,6.130398,47.612787,6.17413,47.65201
5d9705592c59b2ee,city,Corbeil-Essonnes  France,FR,2.436386,48.569089,2.492299,48.625327
fbd6d2f5a4e4a15e,admin,California  USA,US,-124.482003,32.528832,-114.131212,42.009519
4e284ea3fff91c09,city,Troy  MI,US,-83.209206,42.533782,-83.086881,42.624224
795003fb11ee9829,city,New Haven  CT,US,-72.998069,41.246404,-72.860248,41.350384
512a8a4a4c4b4be0,city,Charlotte  NC,US,-81.046876,35.001706,-80.646695,35.416412
573ede7f6c450804,city,Brighton  England,GB,-0.173706,50.80835,-0.087006,50.872314
6ffcf3b0b904bbcb,admin,Kentucky  USA,US,-89.57151,36.497129,-81.964971,39.147359
f3e29c4c744f3625,admin,Barcelona  Catalunya,ES,1.360618,41.192727,2.77795,42.323449
7ca9cc3e813b1534,city,Park Ridge  IL,US,-87.870332,41.984433,-87.816262,42.047178
813a485b26b8dae2,city,Albuquerque  NM,US,-106.791691,35.015891,-106.473745,35.218114
9a9d25fe5729a043,city,Kempten (Allg+Ąu)  Alemania,DE,10.232298,47.694716,10.377809,47.777958
9f659d51e5c5deae,city,Wien  +ľsterreich,AT,16.18218,48.117666,16.577511,48.322574
c69bcfa65fe69f62,city,Pine Castle  FL,US,-81.387393,28.450839,-81.359349,28.483734
cb74aaf709812e0f,city,Tulsa  OK,US,-96.065628,35.968624,-95.761656,36.250159
f54a2170ff4b15f7,admin,Illinois  USA,US,-91.51308,36.970298,-87.019935,42.508303
d2cf5b118a755638,city,Foresto Sparso  Lombardia,IT,9.886646,45.67874,9.938893,45.707215
a5655a07276e4caf,city,Rowland Heights  CA,US,-117.931166,33.945518,-117.850306,34.000574
f9c0877820b7848a,city,Santa Clarita  CA,US,-118.627874,34.347483,-118.378643,34.483779
f9c4cad0af2337fa,admin,Ile-de-France  France,FR,1.446522,48.120449,3.558805,49.233916
ab2f2fac83aa388d,city,Oakland  CA,US,-122.34266,37.699279,-122.114711,37.884709
e2eb5f0e0fbdb6a7,city,Crawfordsville  IN,US,-86.97071,40.013075,-86.852546,40.082025
07d9d814c8888001,poi,mexico D.F.,MX,-99.223877,19.276504,-99.223877,19.276504
61ecf520fef6ce72,city,Oakville  Ontario,CA,-79.810961,43.309929,-79.479201,43.526452
6ba08e404aed471f,city,Riverside  CA,US,-117.523867,33.85216,-117.271365,34.019484
772bb55ca6dfe798,city,Ch+ótenois  France,FR,7.340769,48.259162,7.428032,48.30712
8e098f6d686001a9,city,Zapopan  Jalisco,MX,-103.664175,20.583418,-103.305374,20.997896
aa3c74c48f6524da,city,Palazzuolo sul Senio  Toscana,IT,11.433302,44.046565,11.618284,44.167693
b581d3a745fb8494,city,Tultitl+ín  M+ęxico,MX,-99.192745,19.566355,-99.068511,19.694076
d374fb61a20fb74f,admin,Nevada  USA,US,-120.00574,35.002086,-114.039649,42.002208
1b676cd4b8a8684a,city,Southampton  England,GB,-1.476463,50.883056,-1.316471,50.959599
1bfd987560a69dde,city,Pontarlier  France,FR,6.311279,46.875796,6.447665,46.957853
20ba6fb3b1ee82da,city,Orange  CA,US,-117.904717,33.77319,-117.743381,33.847128
34031d61ef79585f,city,Davie  FL,US,-80.369507,26.029537,-80.200871,26.126804
3acb748d0f1e9265,city,Zurich  Switzerland,CH,8.448081,47.320217,8.625442,47.434721
488da0de4c92ac8e,city,Plano  TX,US,-96.85743,32.997151,-96.612371,33.125334
4939b600461c30a4,city,Hamilton  Ontario,CA,-80.248423,43.050553,-79.578618,43.470838
570002ce3d2a7ac1,city,Addison  TX,US,-96.856247,32.932133,-96.807772,32.987442
5c62ffb0f0f3479d,city,Phoenix  AZ,US,-112.323914,33.29026,-111.925439,33.815465
7291a25672e0d4b1,city,Redmond  WA,US,-122.1649,47.626845,-121.958642,47.73078
7b098aaad3dc46ac,city,Cr+ęteil  France,FR,2.42749,48.761929,2.477374,48.807339
b046074b1030a44d,city,Jersey City  NJ,US,-74.107995,40.666879,-74.025331,40.769124
b8779fa4f42b81de,city,Victoria  Tamaulipas,MX,-99.42842,23.389556,-98.947388,23.982312
bc7f3267d2efaf40,city,Richardson  TX,US,-96.769003,32.923164,-96.612871,33.005805
bcb9b3d3e816b2a3,city,West Lake Stevens  WA,US,-122.138437,47.954555,-122.054357,48.02973
